$EXINT,000000005311.00
$DFSHD,000001
$GPINT,000000005311.00
$GPGLL,2219.3497,N,12035.0155,E,005311,A

$EXINT,000000005321.00
$DFSHD,000002
$GPINT,000000005321.00
$GPGLL,2219.3581,N,12035.0047,E,005321,A

$EXINT,000000005331.00
$DFSHD,000003
$GPINT,000000005331.00
$GPGLL,2219.3664,N,12034.9933,E,005331,A

$EXINT,000000005341.00
$DFSHD,000004
$GPINT,000000005341.00
$GPGLL,2219.3760,N,12034.9824,E,005341,A

$EXINT,000000005401.00
$DFSHD,000006
$GPINT,000000005401.00
$GPGLL,2219.3950,N,12034.9603,E,005401,A

$EXINT,000000005411.00
$DFSHD,000007
$GPINT,000000005411.00
$GPGLL,2219.4034,N,12034.9483,E,005411,A

$EXINT,000000005421.00
$DFSHD,000008
$GPINT,000000005421.00
$GPGLL,2219.4121,N,12034.9370,E,005421,A

$EXINT,000000005431.00
$DFSHD,000009
$GPINT,000000005431.00
$GPGLL,2219.4200,N,12034.9247,E,005431,A

$EXINT,000000005441.00
$DFSHD,000010
$GPINT,000000005441.00
$GPGLL,2219.4290,N,12034.9131,E,005441,A

$EXINT,000000005451.00
$DFSHD,000011
$GPINT,000000005451.00
$GPGLL,2219.4372,N,12034.9008,E,005451,A

$EXINT,000000005501.00
$DFSHD,000012
$GPINT,000000005501.00
$GPGLL,2219.4464,N,12034.8891,E,005501,A

$EXINT,000000005511.00
$DFSHD,000013
$GPINT,000000005511.00
$GPGLL,2219.4552,N,12034.8782,E,005511,A

$EXINT,000000005521.00
$DFSHD,000014
$GPINT,000000005521.00
$GPGLL,2219.4637,N,12034.8671,E,005521,A

$EXINT,000000005531.00
$DFSHD,000015
$GPINT,000000005531.00
$GPGLL,2219.4726,N,12034.8548,E,005531,A

$EXINT,000000005541.00
$DFSHD,000016
$GPINT,000000005541.00
$GPGLL,2219.4811,N,12034.8427,E,005541,A

$EXINT,000000005551.00
$DFSHD,000017
$GPINT,000000005551.00
$GPGLL,2219.4896,N,12034.8308,E,005551,A

$EXINT,000000005601.00
$DFSHD,000018
$GPINT,000000005601.00
$GPGLL,2219.4980,N,12034.8184,E,005601,A

$EXINT,000000005721.00
$DFSHD,000026
$GPINT,000000005721.00
$GPGLL,2219.5633,N,12034.7226,E,005721,A

$EXINT,000000005731.00
$DFSHD,000027
$GPINT,000000005731.00
$GPGLL,2219.5715,N,12034.7101,E,005731,A

$EXINT,000000005741.00
$DFSHD,000028
$GPINT,000000005741.00
$GPGLL,2219.5802,N,12034.6976,E,005741,A

$EXINT,000000005751.00
$DFSHD,000029
$GPINT,000000005751.00
$GPGLL,2219.5887,N,12034.6857,E,005751,A

$EXINT,000000005801.00
$DFSHD,000030
$GPINT,000000005801.00
$GPGLL,2219.5975,N,12034.6740,E,005801,A

$EXINT,000000005811.00
$DFSHD,000031
$GPINT,000000005811.00
$GPGLL,2219.6053,N,12034.6623,E,005811,A

$EXINT,000000005821.00
$DFSHD,000032
$GPINT,000000005821.00
$GPGLL,2219.6140,N,12034.6504,E,005821,A

$EXINT,000000005831.00
$DFSHD,000033
$GPINT,000000005831.00
$GPGLL,2219.6223,N,12034.6379,E,005831,A

$EXINT,000000005841.00
$DFSHD,000034
$GPINT,000000005841.00
$GPGLL,2219.6306,N,12034.6260,E,005841,A

$EXINT,000000005851.00
$DFSHD,000035
$GPINT,000000005851.00
$GPGLL,2219.6391,N,12034.6140,E,005851,A

$EXINT,000000005901.00
$DFSHD,000036
$GPINT,000000005901.00
$GPGLL,2219.6471,N,12034.6017,E,005901,A

$EXINT,000000005911.00
$DFSHD,000037
$GPINT,000000005911.00
$GPGLL,2219.6562,N,12034.5894,E,005911,A

$EXINT,000000005921.00
$DFSHD,000038
$GPINT,000000005921.00
$GPGLL,2219.6648,N,12034.5776,E,005921,A

$EXINT,000000005931.00
$DFSHD,000039
$GPINT,000000005931.00
$GPGLL,2219.6742,N,12034.5662,E,005931,A

$EXINT,000000005941.00
$DFSHD,000040
$GPINT,000000005941.00
$GPGLL,2219.6831,N,12034.5549,E,005941,A

$EXINT,000000005951.00
$DFSHD,000041
$GPINT,000000005951.00
$GPGLL,2219.6919,N,12034.5428,E,005951,A

$EXINT,000000010001.00
$DFSHD,000042
$GPINT,000000010001.00
$GPGLL,2219.7005,N,12034.5311,E,010001,A

$EXINT,000000010011.00
$DFSHD,000043
$GPINT,000000010011.00
$GPGLL,2219.7094,N,12034.5196,E,010011,A

$EXINT,000000010021.00
$DFSHD,000044
$GPINT,000000010021.00
$GPGLL,2219.7173,N,12034.5084,E,010021,A

$EXINT,000000010031.00
$DFSHD,000045
$GPINT,000000010031.00
$GPGLL,2219.7256,N,12034.4960,E,010031,A

$EXINT,000000010041.00
$DFSHD,000046
$GPINT,000000010041.00
$GPGLL,2219.7350,N,12034.4839,E,010041,A

$EXINT,000000010051.00
$DFSHD,000047
$GPINT,000000010051.00
$GPGLL,2219.7438,N,12034.4713,E,010051,A

$EXINT,000000010101.00
$DFSHD,000048
$GPINT,000000010101.00
$GPGLL,2219.7523,N,12034.4595,E,010101,A

$EXINT,000000010111.00
$DFSHD,000049
$GPINT,000000010111.00
$GPGLL,2219.7609,N,12034.4480,E,010111,A

$EXINT,000000010121.00
$DFSHD,000050
$GPINT,000000010121.00
$GPGLL,2219.7700,N,12034.4357,E,010121,A

$EXINT,000000010131.00
$DFSHD,000051
$GPINT,000000010131.00
$GPGLL,2219.7788,N,12034.4242,E,010131,A

$EXINT,000000010141.00
$DFSHD,000052
$GPINT,000000010141.00
$GPGLL,2219.7878,N,12034.4128,E,010141,A

$EXINT,000000010151.00
$DFSHD,000053
$GPINT,000000010151.00
$GPGLL,2219.7961,N,12034.4009,E,010151,A

$EXINT,000000010201.00
$DFSHD,000054
$GPINT,000000010201.00
$GPGLL,2219.8047,N,12034.3895,E,010201,A

$EXINT,000000010211.00
$DFSHD,000055
$GPINT,000000010211.00
$GPGLL,2219.8130,N,12034.3772,E,010211,A

$EXINT,000000010221.00
$DFSHD,000056
$GPINT,000000010221.00
$GPGLL,2219.8217,N,12034.3649,E,010221,A

$EXINT,000000010231.00
$DFSHD,000057
$GPINT,000000010231.00
$GPGLL,2219.8306,N,12034.3538,E,010231,A

$EXINT,000000010241.00
$DFSHD,000058
$GPINT,000000010241.00
$GPGLL,2219.8393,N,12034.3412,E,010241,A

$EXINT,000000010251.00
$DFSHD,000059
$GPINT,000000010251.00
$GPGLL,2219.8480,N,12034.3293,E,010251,A

$EXINT,000000010301.00
$DFSHD,000060
$GPINT,000000010301.00
$GPGLL,2219.8570,N,12034.3173,E,010301,A

$EXINT,000000010311.00
$DFSHD,000061
$GPINT,000000010311.00
$GPGLL,2219.8655,N,12034.3064,E,010311,A

$EXINT,000000010321.00
$DFSHD,000062
$GPINT,000000010321.00
$GPGLL,2219.8741,N,12034.2944,E,010321,A

$EXINT,000000010331.00
$DFSHD,000063
$GPINT,000000010331.00
$GPGLL,2219.8826,N,12034.2820,E,010331,A

$EXINT,000000010341.00
$DFSHD,000064
$GPINT,000000010341.00
$GPGLL,2219.8915,N,12034.2704,E,010341,A

$EXINT,000000010351.00
$DFSHD,000065
$GPINT,000000010351.00
$GPGLL,2219.9006,N,12034.2585,E,010351,A

$EXINT,000000010401.00
$DFSHD,000066
$GPINT,000000010401.00
$GPGLL,2219.9089,N,12034.2464,E,010401,A

$EXINT,000000010411.00
$DFSHD,000067
$GPINT,000000010411.00
$GPGLL,2219.9174,N,12034.2344,E,010411,A

$EXINT,000000010421.00
$DFSHD,000068
$GPINT,000000010421.00
$GPGLL,2219.9258,N,12034.2231,E,010421,A

$EXINT,000000010431.00
$DFSHD,000069
$GPINT,000000010431.00
$GPGLL,2219.9348,N,12034.2113,E,010431,A

$EXINT,000000010441.00
$DFSHD,000070
$GPINT,000000010441.00
$GPGLL,2219.9429,N,12034.1994,E,010441,A

$EXINT,000000010451.00
$DFSHD,000071
$GPINT,000000010451.00
$GPGLL,2219.9517,N,12034.1865,E,010451,A

$EXINT,000000010501.00
$DFSHD,000072
$GPINT,000000010501.00
$GPGLL,2219.9604,N,12034.1742,E,010501,A

$EXINT,000000010511.00
$DFSHD,000073
$GPINT,000000010511.00
$GPGLL,2219.9694,N,12034.1627,E,010511,A

$EXINT,000000010521.00
$DFSHD,000074
$GPINT,000000010521.00
$GPGLL,2219.9782,N,12034.1513,E,010521,A

$EXINT,000000010531.00
$DFSHD,000075
$GPINT,000000010531.00
$GPGLL,2219.9877,N,12034.1398,E,010531,A

$EXINT,000000010541.00
$DFSHD,000076
$GPINT,000000010541.00
$GPGLL,2219.9967,N,12034.1286,E,010541,A

$EXINT,000000010551.00
$DFSHD,000077
$GPINT,000000010551.00
$GPGLL,2220.0054,N,12034.1164,E,010551,A

$EXINT,000000010601.00
$DFSHD,000078
$GPINT,000000010601.00
$GPGLL,2220.0138,N,12034.1043,E,010601,A

$EXINT,000000010611.00
$DFSHD,000079
$GPINT,000000010611.00
$GPGLL,2220.0220,N,12034.0929,E,010611,A

$EXINT,000000010621.00
$DFSHD,000080
$GPINT,000000010621.00
$GPGLL,2220.0305,N,12034.0818,E,010621,A

$EXINT,000000010631.00
$DFSHD,000081
$GPINT,000000010631.00
$GPGLL,2220.0394,N,12034.0698,E,010631,A

$EXINT,000000010641.00
$DFSHD,000082
$GPINT,000000010641.00
$GPGLL,2220.0473,N,12034.0577,E,010641,A

$EXINT,000000010651.00
$DFSHD,000083
$GPINT,000000010651.00
$GPGLL,2220.0566,N,12034.0463,E,010651,A

$EXINT,000000010701.00
$DFSHD,000084
$GPINT,000000010701.00
$GPGLL,2220.0656,N,12034.0345,E,010701,A

$EXINT,000000010711.00
$DFSHD,000085
$GPINT,000000010711.00
$GPGLL,2220.0746,N,12034.0218,E,010711,A

$EXINT,000000010721.00
$DFSHD,000086
$GPINT,000000010721.00
$GPGLL,2220.0830,N,12034.0092,E,010721,A

$EXINT,000000010731.00
$DFSHD,000087
$GPINT,000000010731.00
$GPGLL,2220.0918,N,12033.9975,E,010731,A

$EXINT,000000010741.00
$DFSHD,000088
$GPINT,000000010741.00
$GPGLL,2220.1012,N,12033.9856,E,010741,A

$EXINT,000000010751.00
$DFSHD,000089
$GPINT,000000010751.00
$GPGLL,2220.1094,N,12033.9739,E,010751,A

$EXINT,000000010801.00
$DFSHD,000090
$GPINT,000000010801.00
$GPGLL,2220.1187,N,12033.9618,E,010801,A

$EXINT,000000010811.00
$DFSHD,000091
$GPINT,000000010811.00
$GPGLL,2220.1279,N,12033.9494,E,010811,A

$EXINT,000000010821.00
$DFSHD,000092
$GPINT,000000010821.00
$GPGLL,2220.1366,N,12033.9368,E,010821,A

$EXINT,000000010831.00
$DFSHD,000093
$GPINT,000000010831.00
$GPGLL,2220.1458,N,12033.9252,E,010831,A

$EXINT,000000010841.00
$DFSHD,000094
$GPINT,000000010841.00
$GPGLL,2220.1544,N,12033.9137,E,010841,A

$EXINT,000000010851.00
$DFSHD,000095
$GPINT,000000010851.00
$GPGLL,2220.1625,N,12033.9018,E,010851,A

$EXINT,000000010901.00
$DFSHD,000096
$GPINT,000000010901.00
$GPGLL,2220.1710,N,12033.8898,E,010901,A

$EXINT,000000010911.00
$DFSHD,000097
$GPINT,000000010911.00
$GPGLL,2220.1803,N,12033.8776,E,010911,A

$EXINT,000000010921.00
$DFSHD,000098
$GPINT,000000010921.00
$GPGLL,2220.1894,N,12033.8656,E,010921,A

$EXINT,000000010931.00
$DFSHD,000099
$GPINT,000000010931.00
$GPGLL,2220.1981,N,12033.8532,E,010931,A

$EXINT,000000010941.00
$DFSHD,000100
$GPINT,000000010941.00
$GPGLL,2220.2067,N,12033.8408,E,010941,A

$EXINT,000000010951.00
$DFSHD,000101
$GPINT,000000010951.00
$GPGLL,2220.2159,N,12033.8295,E,010951,A

$EXINT,000000011001.00
$DFSHD,000102
$GPINT,000000011001.00
$GPGLL,2220.2252,N,12033.8181,E,011001,A

$EXINT,000000011011.00
$DFSHD,000103
$GPINT,000000011011.00
$GPGLL,2220.2342,N,12033.8059,E,011011,A

$EXINT,000000011021.00
$DFSHD,000104
$GPINT,000000011021.00
$GPGLL,2220.2433,N,12033.7932,E,011021,A

$EXINT,000000011031.00
$DFSHD,000105
$GPINT,000000011031.00
$GPGLL,2220.2522,N,12033.7812,E,011031,A

$EXINT,000000011041.00
$DFSHD,000106
$GPINT,000000011041.00
$GPGLL,2220.2614,N,12033.7693,E,011041,A

$EXINT,000000011051.00
$DFSHD,000107
$GPINT,000000011051.00
$GPGLL,2220.2703,N,12033.7573,E,011051,A

$EXINT,000000011101.00
$DFSHD,000108
$GPINT,000000011101.00
$GPGLL,2220.2791,N,12033.7454,E,011101,A

$EXINT,000000011111.00
$DFSHD,000109
$GPINT,000000011111.00
$GPGLL,2220.2883,N,12033.7343,E,011111,A

$EXINT,000000011121.00
$DFSHD,000110
$GPINT,000000011121.00
$GPGLL,2220.2962,N,12033.7215,E,011121,A

$EXINT,000000011131.00
$DFSHD,000111
$GPINT,000000011131.00
$GPGLL,2220.3055,N,12033.7100,E,011131,A

$EXINT,000000011141.00
$DFSHD,000112
$GPINT,000000011141.00
$GPGLL,2220.3145,N,12033.6983,E,011141,A

$EXINT,000000011151.00
$DFSHD,000113
$GPINT,000000011151.00
$GPGLL,2220.3234,N,12033.6864,E,011151,A

$EXINT,000000011201.00
$DFSHD,000114
$GPINT,000000011201.00
$GPGLL,2220.3325,N,12033.6749,E,011201,A

$EXINT,000000011211.00
$DFSHD,000115
$GPINT,000000011211.00
$GPGLL,2220.3412,N,12033.6633,E,011211,A

$EXINT,000000011221.00
$DFSHD,000116
$GPINT,000000011221.00
$GPGLL,2220.3498,N,12033.6514,E,011221,A

$EXINT,000000011231.00
$DFSHD,000117
$GPINT,000000011231.00
$GPGLL,2220.3586,N,12033.6403,E,011231,A

$EXINT,000000011241.00
$DFSHD,000118
$GPINT,000000011241.00
$GPGLL,2220.3669,N,12033.6281,E,011241,A

$EXINT,000000011251.00
$DFSHD,000119
$GPINT,000000011251.00
$GPGLL,2220.3758,N,12033.6160,E,011251,A

$EXINT,000000011301.00
$DFSHD,000120
$GPINT,000000011301.00
$GPGLL,2220.3845,N,12033.6037,E,011301,A

$EXINT,000000011311.00
$DFSHD,000121
$GPINT,000000011311.00
$GPGLL,2220.3935,N,12033.5916,E,011311,A

$EXINT,000000011321.00
$DFSHD,000122
$GPINT,000000011321.00
$GPGLL,2220.4022,N,12033.5797,E,011321,A

$EXINT,000000011331.00
$DFSHD,000123
$GPINT,000000011331.00
$GPGLL,2220.4107,N,12033.5669,E,011331,A

$EXINT,000000011341.00
$DFSHD,000124
$GPINT,000000011341.00
$GPGLL,2220.4195,N,12033.5549,E,011341,A

$EXINT,000000011351.00
$DFSHD,000125
$GPINT,000000011351.00
$GPGLL,2220.4287,N,12033.5433,E,011351,A

$EXINT,000000011401.00
$DFSHD,000126
$GPINT,000000011401.00
$GPGLL,2220.4378,N,12033.5323,E,011401,A

$EXINT,000000011411.00
$DFSHD,000127
$GPINT,000000011411.00
$GPGLL,2220.4471,N,12033.5204,E,011411,A

$EXINT,000000011421.00
$DFSHD,000128
$GPINT,000000011421.00
$GPGLL,2220.4554,N,12033.5088,E,011421,A

$EXINT,000000011431.00
$DFSHD,000129
$GPINT,000000011431.00
$GPGLL,2220.4640,N,12033.4970,E,011431,A

$EXINT,000000011441.00
$DFSHD,000130
$GPINT,000000011441.00
$GPGLL,2220.4728,N,12033.4849,E,011441,A

$EXINT,000000011451.00
$DFSHD,000131
$GPINT,000000011451.00
$GPGLL,2220.4815,N,12033.4729,E,011451,A

$EXINT,000000011501.00
$DFSHD,000132
$GPINT,000000011501.00
$GPGLL,2220.4902,N,12033.4604,E,011501,A

$EXINT,000000011511.00
$DFSHD,000133
$GPINT,000000011511.00
$GPGLL,2220.4989,N,12033.4486,E,011511,A

$EXINT,000000011521.00
$DFSHD,000134
$GPINT,000000011521.00
$GPGLL,2220.5085,N,12033.4367,E,011521,A

$EXINT,000000011531.00
$DFSHD,000135
$GPINT,000000011531.00
$GPGLL,2220.5171,N,12033.4244,E,011531,A

$EXINT,000000011541.00
$DFSHD,000136
$GPINT,000000011541.00
$GPGLL,2220.5255,N,12033.4130,E,011541,A

$EXINT,000000011551.00
$DFSHD,000137
$GPINT,000000011551.00
$GPGLL,2220.5346,N,12033.4012,E,011551,A

$EXINT,000000011601.00
$DFSHD,000138
$GPINT,000000011601.00
$GPGLL,2220.5435,N,12033.3898,E,011601,A

$EXINT,000000011611.00
$DFSHD,000139
$GPINT,000000011611.00
$GPGLL,2220.5515,N,12033.3776,E,011611,A

$EXINT,000000011621.00
$DFSHD,000140
$GPINT,000000011621.00
$GPGLL,2220.5607,N,12033.3657,E,011621,A

$EXINT,000000011631.00
$DFSHD,000141
$GPINT,000000011631.00
$GPGLL,2220.5699,N,12033.3535,E,011631,A

$EXINT,000000011641.00
$DFSHD,000142
$GPINT,000000011641.00
$GPGLL,2220.5786,N,12033.3411,E,011641,A

$EXINT,000000011651.00
$DFSHD,000143
$GPINT,000000011651.00
$GPGLL,2220.5876,N,12033.3288,E,011651,A

$EXINT,000000011701.00
$DFSHD,000144
$GPINT,000000011701.00
$GPGLL,2220.5966,N,12033.3169,E,011701,A

$EXINT,000000011711.00
$DFSHD,000145
$GPINT,000000011711.00
$GPGLL,2220.6058,N,12033.3046,E,011711,A

$EXINT,000000011721.00
$DFSHD,000146
$GPINT,000000011721.00
$GPGLL,2220.6156,N,12033.2926,E,011721,A

$EXINT,000000011731.00
$DFSHD,000147
$GPINT,000000011731.00
$GPGLL,2220.6236,N,12033.2810,E,011731,A

$EXINT,000000011741.00
$DFSHD,000148
$GPINT,000000011741.00
$GPGLL,2220.6331,N,12033.2695,E,011741,A

$EXINT,000000011751.00
$DFSHD,000149
$GPINT,000000011751.00
$GPGLL,2220.6419,N,12033.2571,E,011751,A

$EXINT,000000011801.00
$DFSHD,000150
$GPINT,000000011801.00
$GPGLL,2220.6513,N,12033.2457,E,011801,A

$EXINT,000000011811.00
$DFSHD,000151
$GPINT,000000011811.00
$GPGLL,2220.6597,N,12033.2339,E,011811,A

$EXINT,000000011821.00
$DFSHD,000152
$GPINT,000000011821.00
$GPGLL,2220.6690,N,12033.2210,E,011821,A

$EXINT,000000011831.00
$DFSHD,000153
$GPINT,000000011831.00
$GPGLL,2220.6780,N,12033.2085,E,011831,A

$EXINT,000000011841.00
$DFSHD,000154
$GPINT,000000011841.00
$GPGLL,2220.6868,N,12033.1963,E,011841,A

$EXINT,000000011851.00
$DFSHD,000155
$GPINT,000000011851.00
$GPGLL,2220.6959,N,12033.1840,E,011851,A

$EXINT,000000011901.00
$DFSHD,000156
$GPINT,000000011901.00
$GPGLL,2220.7041,N,12033.1717,E,011901,A

$EXINT,000000011911.00
$DFSHD,000157
$GPINT,000000011911.00
$GPGLL,2220.7132,N,12033.1596,E,011911,A

$EXINT,000000011921.00
$DFSHD,000158
$GPINT,000000011921.00
$GPGLL,2220.7218,N,12033.1475,E,011921,A

$EXINT,000000011931.00
$DFSHD,000159
$GPINT,000000011931.00
$GPGLL,2220.7300,N,12033.1354,E,011931,A

$EXINT,000000011941.00
$DFSHD,000160
$GPINT,000000011941.00
$GPGLL,2220.7387,N,12033.1237,E,011941,A

$EXINT,000000011951.00
$DFSHD,000161
$GPINT,000000011951.00
$GPGLL,2220.7482,N,12033.1114,E,011951,A

$EXINT,000000012001.00
$DFSHD,000162
$GPINT,000000012001.00
$GPGLL,2220.7577,N,12033.0995,E,012001,A

$EXINT,000000012011.00
$DFSHD,000163
$GPINT,000000012011.00
$GPGLL,2220.7668,N,12033.0873,E,012011,A

$EXINT,000000012021.00
$DFSHD,000164
$GPINT,000000012021.00
$GPGLL,2220.7755,N,12033.0754,E,012021,A

$EXINT,000000012031.00
$DFSHD,000165
$GPINT,000000012031.00
$GPGLL,2220.7847,N,12033.0640,E,012031,A

$EXINT,000000012041.00
$DFSHD,000166
$GPINT,000000012041.00
$GPGLL,2220.7937,N,12033.0517,E,012041,A

$EXINT,000000012051.00
$DFSHD,000167
$GPINT,000000012051.00
$GPGLL,2220.8028,N,12033.0389,E,012051,A

$EXINT,000000012101.00
$DFSHD,000168
$GPINT,000000012101.00
$GPGLL,2220.8117,N,12033.0263,E,012101,A

$EXINT,000000012111.00
$DFSHD,000169
$GPINT,000000012111.00
$GPGLL,2220.8200,N,12033.0140,E,012111,A

$EXINT,000000012121.00
$DFSHD,000170
$GPINT,000000012121.00
$GPGLL,2220.8287,N,12033.0013,E,012121,A

$EXINT,000000012131.00
$DFSHD,000171
$GPINT,000000012131.00
$GPGLL,2220.8370,N,12032.9889,E,012131,A

$EXINT,000000012141.00
$DFSHD,000172
$GPINT,000000012141.00
$GPGLL,2220.8462,N,12032.9771,E,012141,A

$EXINT,000000012151.00
$DFSHD,000173
$GPINT,000000012151.00
$GPGLL,2220.8554,N,12032.9658,E,012151,A

$EXINT,000000012201.00
$DFSHD,000174
$GPINT,000000012201.00
$GPGLL,2220.8646,N,12032.9532,E,012201,A

$EXINT,000000012211.00
$DFSHD,000175
$GPINT,000000012211.00
$GPGLL,2220.8737,N,12032.9413,E,012211,A

$EXINT,000000012221.00
$DFSHD,000176
$GPINT,000000012221.00
$GPGLL,2220.8829,N,12032.9293,E,012221,A

$EXINT,000000012231.00
$DFSHD,000177
$GPINT,000000012231.00
$GPGLL,2220.8913,N,12032.9167,E,012231,A

$EXINT,000000012241.00
$DFSHD,000178
$GPINT,000000012241.00
$GPGLL,2220.8992,N,12032.9041,E,012241,A

$EXINT,000000012251.00
$DFSHD,000179
$GPINT,000000012251.00
$GPGLL,2220.9082,N,12032.8923,E,012251,A

$EXINT,000000012301.00
$DFSHD,000180
$GPINT,000000012301.00
$GPGLL,2220.9166,N,12032.8802,E,012301,A

$EXINT,000000012311.00
$DFSHD,000181
$GPINT,000000012311.00
$GPGLL,2220.9261,N,12032.8685,E,012311,A

$EXINT,000000012321.00
$DFSHD,000182
$GPINT,000000012321.00
$GPGLL,2220.9342,N,12032.8562,E,012321,A

$EXINT,000000012331.00
$DFSHD,000183
$GPINT,000000012331.00
$GPGLL,2220.9434,N,12032.8441,E,012331,A

$EXINT,000000012341.00
$DFSHD,000184
$GPINT,000000012341.00
$GPGLL,2220.9524,N,12032.8318,E,012341,A

$EXINT,000000012351.00
$DFSHD,000185
$GPINT,000000012351.00
$GPGLL,2220.9609,N,12032.8194,E,012351,A

$EXINT,000000012401.00
$DFSHD,000186
$GPINT,000000012401.00
$GPGLL,2220.9698,N,12032.8073,E,012401,A

$EXINT,000000012411.00
$DFSHD,000187
$GPINT,000000012411.00
$GPGLL,2220.9790,N,12032.7952,E,012411,A

$EXINT,000000012421.00
$DFSHD,000188
$GPINT,000000012421.00
$GPGLL,2220.9881,N,12032.7840,E,012421,A

$EXINT,000000012431.00
$DFSHD,000189
$GPINT,000000012431.00
$GPGLL,2220.9973,N,12032.7713,E,012431,A

$EXINT,000000012441.00
$DFSHD,000190
$GPINT,000000012441.00
$GPGLL,2221.0056,N,12032.7585,E,012441,A

$EXINT,000000012451.00
$DFSHD,000191
$GPINT,000000012451.00
$GPGLL,2221.0148,N,12032.7461,E,012451,A

$EXINT,000000012501.00
$DFSHD,000192
$GPINT,000000012501.00
$GPGLL,2221.0241,N,12032.7341,E,012501,A

$EXINT,000000012511.00
$DFSHD,000193
$GPINT,000000012511.00
$GPGLL,2221.0320,N,12032.7221,E,012511,A

$EXINT,000000012521.00
$DFSHD,000194
$GPINT,000000012521.00
$GPGLL,2221.0407,N,12032.7097,E,012521,A

$EXINT,000000012531.00
$DFSHD,000195
$GPINT,000000012531.00
$GPGLL,2221.0502,N,12032.6970,E,012531,A

$EXINT,000000012541.00
$DFSHD,000196
$GPINT,000000012541.00
$GPGLL,2221.0579,N,12032.6850,E,012541,A

$EXINT,000000012551.00
$DFSHD,000197
$GPINT,000000012551.00
$GPGLL,2221.0675,N,12032.6730,E,012551,A

$EXINT,000000012601.00
$DFSHD,000198
$GPINT,000000012601.00
$GPGLL,2221.0766,N,12032.6617,E,012601,A

$EXINT,000000012611.00
$DFSHD,000199
$GPINT,000000012611.00
$GPGLL,2221.0852,N,12032.6491,E,012611,A

$EXINT,000000012621.00
$DFSHD,000200
$GPINT,000000012621.00
$GPGLL,2221.0944,N,12032.6375,E,012621,A

$EXINT,000000012631.00
$DFSHD,000201
$GPINT,000000012631.00
$GPGLL,2221.1032,N,12032.6257,E,012631,A

$EXINT,000000012641.00
$DFSHD,000202
$GPINT,000000012641.00
$GPGLL,2221.1127,N,12032.6138,E,012641,A

$EXINT,000000012651.00
$DFSHD,000203
$GPINT,000000012651.00
$GPGLL,2221.1219,N,12032.6015,E,012651,A

$EXINT,000000012701.00
$DFSHD,000204
$GPINT,000000012701.00
$GPGLL,2221.1298,N,12032.5885,E,012701,A

$EXINT,000000012711.00
$DFSHD,000205
$GPINT,000000012711.00
$GPGLL,2221.1385,N,12032.5759,E,012711,A

$EXINT,000000012721.00
$DFSHD,000206
$GPINT,000000012721.00
$GPGLL,2221.1469,N,12032.5640,E,012721,A

$EXINT,000000012731.00
$DFSHD,000207
$GPINT,000000012731.00
$GPGLL,2221.1559,N,12032.5514,E,012731,A

$EXINT,000000012741.00
$DFSHD,000208
$GPINT,000000012741.00
$GPGLL,2221.1644,N,12032.5395,E,012741,A

$EXINT,000000012751.00
$DFSHD,000209
$GPINT,000000012751.00
$GPGLL,2221.1723,N,12032.5272,E,012751,A

$EXINT,000000012801.00
$DFSHD,000210
$GPINT,000000012801.00
$GPGLL,2221.1815,N,12032.5159,E,012801,A

$EXINT,000000012811.00
$DFSHD,000211
$GPINT,000000012811.00
$GPGLL,2221.1902,N,12032.5033,E,012811,A

$EXINT,000000012821.00
$DFSHD,000212
$GPINT,000000012821.00
$GPGLL,2221.1997,N,12032.4918,E,012821,A

$EXINT,000000012831.00
$DFSHD,000213
$GPINT,000000012831.00
$GPGLL,2221.2082,N,12032.4792,E,012831,A

$EXINT,000000012841.00
$DFSHD,000214
$GPINT,000000012841.00
$GPGLL,2221.2165,N,12032.4674,E,012841,A

$EXINT,000000012851.00
$DFSHD,000215
$GPINT,000000012851.00
$GPGLL,2221.2251,N,12032.4557,E,012851,A

$EXINT,000000012901.00
$DFSHD,000216
$GPINT,000000012901.00
$GPGLL,2221.2342,N,12032.4434,E,012901,A

$EXINT,000000012911.00
$DFSHD,000217
$GPINT,000000012911.00
$GPGLL,2221.2423,N,12032.4316,E,012911,A

$EXINT,000000012921.00
$DFSHD,000218
$GPINT,000000012921.00
$GPGLL,2221.2516,N,12032.4195,E,012921,A

$EXINT,000000012931.00
$DFSHD,000219
$GPINT,000000012931.00
$GPGLL,2221.2603,N,12032.4068,E,012931,A

$EXINT,000000012941.00
$DFSHD,000220
$GPINT,000000012941.00
$GPGLL,2221.2690,N,12032.3949,E,012941,A

$EXINT,000000012951.00
$DFSHD,000221
$GPINT,000000012951.00
$GPGLL,2221.2776,N,12032.3829,E,012951,A

$EXINT,000000013001.00
$DFSHD,000222
$GPINT,000000013001.00
$GPGLL,2221.2863,N,12032.3704,E,013001,A

$EXINT,000000013011.00
$DFSHD,000223
$GPINT,000000013011.00
$GPGLL,2221.2949,N,12032.3585,E,013011,A

$EXINT,000000013021.00
$DFSHD,000224
$GPINT,000000013021.00
$GPGLL,2221.3040,N,12032.3461,E,013021,A

$EXINT,000000013031.00
$DFSHD,000225
$GPINT,000000013031.00
$GPGLL,2221.3130,N,12032.3339,E,013031,A

$EXINT,000000013041.00
$DFSHD,000226
$GPINT,000000013041.00
$GPGLL,2221.3219,N,12032.3221,E,013041,A

$EXINT,000000013051.00
$DFSHD,000227
$GPINT,000000013051.00
$GPGLL,2221.3311,N,12032.3102,E,013051,A

$EXINT,000000013101.00
$DFSHD,000228
$GPINT,000000013101.00
$GPGLL,2221.3397,N,12032.2981,E,013101,A

$EXINT,000000013111.00
$DFSHD,000229
$GPINT,000000013111.00
$GPGLL,2221.3477,N,12032.2861,E,013111,A

$EXINT,000000013121.00
$DFSHD,000230
$GPINT,000000013121.00
$GPGLL,2221.3566,N,12032.2748,E,013121,A

$EXINT,000000013131.00
$DFSHD,000231
$GPINT,000000013131.00
$GPGLL,2221.3657,N,12032.2630,E,013131,A

$EXINT,000000013141.00
$DFSHD,000232
$GPINT,000000013141.00
$GPGLL,2221.3744,N,12032.2518,E,013141,A

$EXINT,000000013151.00
$DFSHD,000233
$GPINT,000000013151.00
$GPGLL,2221.3831,N,12032.2403,E,013151,A

$EXINT,000000013201.00
$DFSHD,000234
$GPINT,000000013201.00
$GPGLL,2221.3908,N,12032.2287,E,013201,A

$EXINT,000000013211.00
$DFSHD,000235
$GPINT,000000013211.00
$GPGLL,2221.3995,N,12032.2167,E,013211,A

$EXINT,000000013221.00
$DFSHD,000236
$GPINT,000000013221.00
$GPGLL,2221.4084,N,12032.2047,E,013221,A

$EXINT,000000013231.00
$DFSHD,000237
$GPINT,000000013231.00
$GPGLL,2221.4173,N,12032.1929,E,013231,A

$EXINT,000000013241.00
$DFSHD,000238
$GPINT,000000013241.00
$GPGLL,2221.4256,N,12032.1805,E,013241,A

$EXINT,000000013251.00
$DFSHD,000239
$GPINT,000000013251.00
$GPGLL,2221.4341,N,12032.1678,E,013251,A

$EXINT,000000013301.00
$DFSHD,000240
$GPINT,000000013301.00
$GPGLL,2221.4421,N,12032.1558,E,013301,A

$EXINT,000000013311.00
$DFSHD,000241
$GPINT,000000013311.00
$GPGLL,2221.4510,N,12032.1437,E,013311,A

$EXINT,000000013321.00
$DFSHD,000242
$GPINT,000000013321.00
$GPGLL,2221.4602,N,12032.1314,E,013321,A

$EXINT,000000013331.00
$DFSHD,000243
$GPINT,000000013331.00
$GPGLL,2221.4688,N,12032.1198,E,013331,A

$EXINT,000000013341.00
$DFSHD,000244
$GPINT,000000013341.00
$GPGLL,2221.4778,N,12032.1078,E,013341,A

$EXINT,000000013351.00
$DFSHD,000245
$GPINT,000000013351.00
$GPGLL,2221.4863,N,12032.0956,E,013351,A

$EXINT,000000013401.00
$DFSHD,000246
$GPINT,000000013401.00
$GPGLL,2221.4950,N,12032.0835,E,013401,A

$EXINT,000000013411.00
$DFSHD,000247
$GPINT,000000013411.00
$GPGLL,2221.5043,N,12032.0720,E,013411,A

$EXINT,000000013421.00
$DFSHD,000248
$GPINT,000000013421.00
$GPGLL,2221.5136,N,12032.0594,E,013421,A

$EXINT,000000013431.00
$DFSHD,000249
$GPINT,000000013431.00
$GPGLL,2221.5210,N,12032.0469,E,013431,A

$EXINT,000000013441.00
$DFSHD,000250
$GPINT,000000013441.00
$GPGLL,2221.5303,N,12032.0342,E,013441,A

$EXINT,000000013451.00
$DFSHD,000251
$GPINT,000000013451.00
$GPGLL,2221.5394,N,12032.0227,E,013451,A

$EXINT,000000013501.00
$DFSHD,000252
$GPINT,000000013501.00
$GPGLL,2221.5476,N,12032.0105,E,013501,A

$EXINT,000000013511.00
$DFSHD,000253
$GPINT,000000013511.00
$GPGLL,2221.5565,N,12031.9981,E,013511,A

$EXINT,000000013521.00
$DFSHD,000254
$GPINT,000000013521.00
$GPGLL,2221.5661,N,12031.9863,E,013521,A

$EXINT,000000013531.00
$DFSHD,000255
$GPINT,000000013531.00
$GPGLL,2221.5749,N,12031.9744,E,013531,A

$EXINT,000000013541.00
$DFSHD,000256
$GPINT,000000013541.00
$GPGLL,2221.5829,N,12031.9623,E,013541,A

$EXINT,000000013551.00
$DFSHD,000257
$GPINT,000000013551.00
$GPGLL,2221.5935,N,12031.9501,E,013551,A

$EXINT,000000013601.00
$DFSHD,000258
$GPINT,000000013601.00
$GPGLL,2221.6026,N,12031.9378,E,013601,A

$EXINT,000000013611.00
$DFSHD,000259
$GPINT,000000013611.00
$GPGLL,2221.6114,N,12031.9252,E,013611,A

$EXINT,000000013621.00
$DFSHD,000260
$GPINT,000000013621.00
$GPGLL,2221.6207,N,12031.9132,E,013621,A

$EXINT,000000013631.00
$DFSHD,000261
$GPINT,000000013631.00
$GPGLL,2221.6296,N,12031.9005,E,013631,A

$EXINT,000000013641.00
$DFSHD,000262
$GPINT,000000013641.00
$GPGLL,2221.6387,N,12031.8884,E,013641,A

$EXINT,000000013651.00
$DFSHD,000263
$GPINT,000000013651.00
$GPGLL,2221.6477,N,12031.8761,E,013651,A

$EXINT,000000013701.00
$DFSHD,000264
$GPINT,000000013701.00
$GPGLL,2221.6568,N,12031.8634,E,013701,A

$EXINT,000000013711.00
$DFSHD,000265
$GPINT,000000013711.00
$GPGLL,2221.6655,N,12031.8511,E,013711,A

$EXINT,000000013721.00
$DFSHD,000266
$GPINT,000000013721.00
$GPGLL,2221.6749,N,12031.8393,E,013721,A

$EXINT,000000013731.00
$DFSHD,000267
$GPINT,000000013731.00
$GPGLL,2221.6833,N,12031.8275,E,013731,A

$EXINT,000000013741.00
$DFSHD,000268
$GPINT,000000013741.00
$GPGLL,2221.6916,N,12031.8158,E,013741,A

$EXINT,000000013751.00
$DFSHD,000269
$GPINT,000000013751.00
$GPGLL,2221.6994,N,12031.8037,E,013751,A

$EXINT,000000013801.00
$DFSHD,000270
$GPINT,000000013801.00
$GPGLL,2221.7085,N,12031.7918,E,013801,A

$EXINT,000000013811.00
$DFSHD,000271
$GPINT,000000013811.00
$GPGLL,2221.7179,N,12031.7794,E,013811,A

$EXINT,000000013821.00
$DFSHD,000272
$GPINT,000000013821.00
$GPGLL,2221.7271,N,12031.7669,E,013821,A

$EXINT,000000013831.00
$DFSHD,000273
$GPINT,000000013831.00
$GPGLL,2221.7355,N,12031.7549,E,013831,A

$EXINT,000000013841.00
$DFSHD,000274
$GPINT,000000013841.00
$GPGLL,2221.7442,N,12031.7420,E,013841,A

$EXINT,000000013851.00
$DFSHD,000275
$GPINT,000000013851.00
$GPGLL,2221.7531,N,12031.7301,E,013851,A

$EXINT,000000013901.00
$DFSHD,000276
$GPINT,000000013901.00
$GPGLL,2221.7612,N,12031.7184,E,013901,A

$EXINT,000000013911.00
$DFSHD,000277
$GPINT,000000013911.00
$GPGLL,2221.7697,N,12031.7071,E,013911,A

$EXINT,000000013921.00
$DFSHD,000278
$GPINT,000000013921.00
$GPGLL,2221.7784,N,12031.6947,E,013921,A

$EXINT,000000013931.00
$DFSHD,000279
$GPINT,000000013931.00
$GPGLL,2221.7874,N,12031.6826,E,013931,A

$EXINT,000000013941.00
$DFSHD,000280
$GPINT,000000013941.00
$GPGLL,2221.7957,N,12031.6706,E,013941,A

$EXINT,000000013951.00
$DFSHD,000281
$GPINT,000000013951.00
$GPGLL,2221.8045,N,12031.6586,E,013951,A

$EXINT,000000014001.00
$DFSHD,000282
$GPINT,000000014001.00
$GPGLL,2221.8131,N,12031.6471,E,014001,A

$EXINT,000000014011.00
$DFSHD,000283
$GPINT,000000014011.00
$GPGLL,2221.8224,N,12031.6357,E,014011,A

$EXINT,000000014021.00
$DFSHD,000284
$GPINT,000000014021.00
$GPGLL,2221.8310,N,12031.6238,E,014021,A

$EXINT,000000014031.00
$DFSHD,000285
$GPINT,000000014031.00
$GPGLL,2221.8390,N,12031.6116,E,014031,A

$EXINT,000000014041.00
$DFSHD,000286
$GPINT,000000014041.00
$GPGLL,2221.8480,N,12031.5995,E,014041,A

$EXINT,000000014051.00
$DFSHD,000287
$GPINT,000000014051.00
$GPGLL,2221.8570,N,12031.5875,E,014051,A

$EXINT,000000014101.00
$DFSHD,000288
$GPINT,000000014101.00
$GPGLL,2221.8652,N,12031.5755,E,014101,A

$EXINT,000000014111.00
$DFSHD,000289
$GPINT,000000014111.00
$GPGLL,2221.8737,N,12031.5638,E,014111,A

$EXINT,000000014121.00
$DFSHD,000290
$GPINT,000000014121.00
$GPGLL,2221.8818,N,12031.5523,E,014121,A

$EXINT,000000014131.00
$DFSHD,000291
$GPINT,000000014131.00
$GPGLL,2221.8913,N,12031.5408,E,014131,A

$EXINT,000000014141.00
$DFSHD,000292
$GPINT,000000014141.00
$GPGLL,2221.9000,N,12031.5293,E,014141,A

$EXINT,000000014151.00
$DFSHD,000293
$GPINT,000000014151.00
$GPGLL,2221.9092,N,12031.5174,E,014151,A

$EXINT,000000014201.00
$DFSHD,000294
$GPINT,000000014201.00
$GPGLL,2221.9173,N,12031.5055,E,014201,A

$EXINT,000000014211.00
$DFSHD,000295
$GPINT,000000014211.00
$GPGLL,2221.9258,N,12031.4932,E,014211,A

$EXINT,000000014221.00
$DFSHD,000296
$GPINT,000000014221.00
$GPGLL,2221.9340,N,12031.4806,E,014221,A

$EXINT,000000014231.00
$DFSHD,000297
$GPINT,000000014231.00
$GPGLL,2221.9429,N,12031.4694,E,014231,A

$EXINT,000000014241.00
$DFSHD,000298
$GPINT,000000014241.00
$GPGLL,2221.9508,N,12031.4572,E,014241,A

$EXINT,000000014251.00
$DFSHD,000299
$GPINT,000000014251.00
$GPGLL,2221.9593,N,12031.4449,E,014251,A

$EXINT,000000014301.00
$DFSHD,000300
$GPINT,000000014301.00
$GPGLL,2221.9682,N,12031.4331,E,014301,A

$EXINT,000000014311.00
$DFSHD,000301
$GPINT,000000014311.00
$GPGLL,2221.9765,N,12031.4214,E,014311,A

$EXINT,000000014321.00
$DFSHD,000302
$GPINT,000000014321.00
$GPGLL,2221.9862,N,12031.4113,E,014321,A

$EXINT,000000014331.00
$DFSHD,000303
$GPINT,000000014331.00
$GPGLL,2221.9948,N,12031.3998,E,014331,A

$EXINT,000000014341.00
$DFSHD,000304
$GPINT,000000014341.00
$GPGLL,2222.0027,N,12031.3883,E,014341,A

$EXINT,000000014351.00
$DFSHD,000305
$GPINT,000000014351.00
$GPGLL,2222.0111,N,12031.3764,E,014351,A

$EXINT,000000014401.00
$DFSHD,000306
$GPINT,000000014401.00
$GPGLL,2222.0208,N,12031.3646,E,014401,A

$EXINT,000000014411.00
$DFSHD,000307
$GPINT,000000014411.00
$GPGLL,2222.0286,N,12031.3534,E,014411,A

$EXINT,000000014421.00
$DFSHD,000308
$GPINT,000000014421.00
$GPGLL,2222.0372,N,12031.3408,E,014421,A

$EXINT,000000014431.00
$DFSHD,000309
$GPINT,000000014431.00
$GPGLL,2222.0446,N,12031.3290,E,014431,A

$EXINT,000000014441.00
$DFSHD,000310
$GPINT,000000014441.00
$GPGLL,2222.0538,N,12031.3175,E,014441,A

$EXINT,000000014451.00
$DFSHD,000311
$GPINT,000000014451.00
$GPGLL,2222.0626,N,12031.3071,E,014451,A

$EXINT,000000014501.00
$DFSHD,000312
$GPINT,000000014501.00
$GPGLL,2222.0713,N,12031.2962,E,014501,A

$EXINT,000000014511.00
$DFSHD,000313
$GPINT,000000014511.00
$GPGLL,2222.0802,N,12031.2832,E,014511,A

$EXINT,000000014521.00
$DFSHD,000314
$GPINT,000000014521.00
$GPGLL,2222.0893,N,12031.2713,E,014521,A

$EXINT,000000014531.00
$DFSHD,000315
$GPINT,000000014531.00
$GPGLL,2222.0990,N,12031.2595,E,014531,A

$EXINT,000000014541.00
$DFSHD,000316
$GPINT,000000014541.00
$GPGLL,2222.1088,N,12031.2475,E,014541,A

$EXINT,000000014551.00
$DFSHD,000317
$GPINT,000000014551.00
$GPGLL,2222.1174,N,12031.2356,E,014551,A

$EXINT,000000014601.00
$DFSHD,000318
$GPINT,000000014601.00
$GPGLL,2222.1261,N,12031.2239,E,014601,A

$EXINT,000000014611.00
$DFSHD,000319
$GPINT,000000014611.00
$GPGLL,2222.1351,N,12031.2129,E,014611,A

$EXINT,000000014621.00
$DFSHD,000320
$GPINT,000000014621.00
$GPGLL,2222.1455,N,12031.2019,E,014621,A

$EXINT,000000014631.00
$DFSHD,000321
$GPINT,000000014631.00
$GPGLL,2222.1549,N,12031.1905,E,014631,A

$EXINT,000000014641.00
$DFSHD,000322
$GPINT,000000014641.00
$GPGLL,2222.1636,N,12031.1792,E,014641,A

$EXINT,000000014651.00
$DFSHD,000323
$GPINT,000000014651.00
$GPGLL,2222.1721,N,12031.1672,E,014651,A

$EXINT,000000014701.00
$DFSHD,000324
$GPINT,000000014701.00
$GPGLL,2222.1813,N,12031.1557,E,014701,A

$EXINT,000000014711.00
$DFSHD,000325
$GPINT,000000014711.00
$GPGLL,2222.1905,N,12031.1442,E,014711,A

$EXINT,000000014721.00
$DFSHD,000326
$GPINT,000000014721.00
$GPGLL,2222.1986,N,12031.1322,E,014721,A

$EXINT,000000014731.00
$DFSHD,000327
$GPINT,000000014731.00
$GPGLL,2222.2072,N,12031.1199,E,014731,A

$EXINT,000000014741.00
$DFSHD,000328
$GPINT,000000014741.00
$GPGLL,2222.2162,N,12031.1091,E,014741,A

$EXINT,000000014751.00
$DFSHD,000329
$GPINT,000000014751.00
$GPGLL,2222.2252,N,12031.0978,E,014751,A

$EXINT,000000014801.00
$DFSHD,000330
$GPINT,000000014801.00
$GPGLL,2222.2334,N,12031.0864,E,014801,A

$EXINT,000000014811.00
$DFSHD,000331
$GPINT,000000014811.00
$GPGLL,2222.2426,N,12031.0741,E,014811,A

$EXINT,000000014821.00
$DFSHD,000332
$GPINT,000000014821.00
$GPGLL,2222.2502,N,12031.0618,E,014821,A

$EXINT,000000014831.00
$DFSHD,000333
$GPINT,000000014831.00
$GPGLL,2222.2594,N,12031.0502,E,014831,A

$EXINT,000000014841.00
$DFSHD,000334
$GPINT,000000014841.00
$GPGLL,2222.2671,N,12031.0375,E,014841,A

$EXINT,000000014851.00
$DFSHD,000335
$GPINT,000000014851.00
$GPGLL,2222.2757,N,12031.0256,E,014851,A

$EXINT,000000014901.00
$DFSHD,000336
$GPINT,000000014901.00
$GPGLL,2222.2846,N,12031.0143,E,014901,A

$EXINT,000000014911.00
$DFSHD,000337
$GPINT,000000014911.00
$GPGLL,2222.2933,N,12031.0024,E,014911,A

$EXINT,000000014921.00
$DFSHD,000338
$GPINT,000000014921.00
$GPGLL,2222.3025,N,12030.9909,E,014921,A

$EXINT,000000014931.00
$DFSHD,000339
$GPINT,000000014931.00
$GPGLL,2222.3113,N,12030.9791,E,014931,A

$EXINT,000000014941.00
$DFSHD,000340
$GPINT,000000014941.00
$GPGLL,2222.3201,N,12030.9674,E,014941,A

$EXINT,000000014951.00
$DFSHD,000341
$GPINT,000000014951.00
$GPGLL,2222.3291,N,12030.9556,E,014951,A

$EXINT,000000015001.00
$DFSHD,000342
$GPINT,000000015001.00
$GPGLL,2222.3362,N,12030.9427,E,015001,A

$EXINT,000000015011.00
$DFSHD,000343
$GPINT,000000015011.00
$GPGLL,2222.3454,N,12030.9320,E,015011,A

$EXINT,000000015021.00
$DFSHD,000344
$GPINT,000000015021.00
$GPGLL,2222.3537,N,12030.9207,E,015021,A

$EXINT,000000015031.00
$DFSHD,000345
$GPINT,000000015031.00
$GPGLL,2222.3625,N,12030.9095,E,015031,A

$EXINT,000000015041.00
$DFSHD,000346
$GPINT,000000015041.00
$GPGLL,2222.3709,N,12030.8973,E,015041,A

$EXINT,000000015051.00
$DFSHD,000347
$GPINT,000000015051.00
$GPGLL,2222.3802,N,12030.8854,E,015051,A

$EXINT,000000015101.00
$DFSHD,000348
$GPINT,000000015101.00
$GPGLL,2222.3896,N,12030.8730,E,015101,A

$EXINT,000000015111.00
$DFSHD,000349
$GPINT,000000015111.00
$GPGLL,2222.3978,N,12030.8607,E,015111,A

$EXINT,000000015121.00
$DFSHD,000350
$GPINT,000000015121.00
$GPGLL,2222.4069,N,12030.8496,E,015121,A

$EXINT,000000015131.00
$DFSHD,000351
$GPINT,000000015131.00
$GPGLL,2222.4150,N,12030.8380,E,015131,A

$EXINT,000000015141.00
$DFSHD,000352
$GPINT,000000015141.00
$GPGLL,2222.4237,N,12030.8268,E,015141,A

$EXINT,000000015151.00
$DFSHD,000353
$GPINT,000000015151.00
$GPGLL,2222.4329,N,12030.8157,E,015151,A

$EXINT,000000015201.00
$DFSHD,000354
$GPINT,000000015201.00
$GPGLL,2222.4417,N,12030.8040,E,015201,A

$EXINT,000000015211.00
$DFSHD,000355
$GPINT,000000015211.00
$GPGLL,2222.4506,N,12030.7916,E,015211,A

$EXINT,000000015221.00
$DFSHD,000356
$GPINT,000000015221.00
$GPGLL,2222.4588,N,12030.7801,E,015221,A

$EXINT,000000015231.00
$DFSHD,000357
$GPINT,000000015231.00
$GPGLL,2222.4673,N,12030.7679,E,015231,A

$EXINT,000000015241.00
$DFSHD,000358
$GPINT,000000015241.00
$GPGLL,2222.4758,N,12030.7558,E,015241,A

$EXINT,000000015251.00
$DFSHD,000359
$GPINT,000000015251.00
$GPGLL,2222.4846,N,12030.7447,E,015251,A

$EXINT,000000015301.00
$DFSHD,000360
$GPINT,000000015301.00
$GPGLL,2222.4933,N,12030.7328,E,015301,A

$EXINT,000000015311.00
$DFSHD,000361
$GPINT,000000015311.00
$GPGLL,2222.5014,N,12030.7206,E,015311,A

$EXINT,000000015321.00
$DFSHD,000362
$GPINT,000000015321.00
$GPGLL,2222.5100,N,12030.7087,E,015321,A

$EXINT,000000015331.00
$DFSHD,000363
$GPINT,000000015331.00
$GPGLL,2222.5190,N,12030.6975,E,015331,A

$EXINT,000000015341.00
$DFSHD,000364
$GPINT,000000015341.00
$GPGLL,2222.5274,N,12030.6857,E,015341,A

$EXINT,000000015351.00
$DFSHD,000365
$GPINT,000000015351.00
$GPGLL,2222.5366,N,12030.6737,E,015351,A

$EXINT,000000015401.00
$DFSHD,000366
$GPINT,000000015401.00
$GPGLL,2222.5457,N,12030.6625,E,015401,A

$EXINT,000000015411.00
$DFSHD,000367
$GPINT,000000015411.00
$GPGLL,2222.5543,N,12030.6499,E,015411,A

$EXINT,000000015421.00
$DFSHD,000368
$GPINT,000000015421.00
$GPGLL,2222.5630,N,12030.6383,E,015421,A

$EXINT,000000015431.00
$DFSHD,000369
$GPINT,000000015431.00
$GPGLL,2222.5720,N,12030.6261,E,015431,A

$EXINT,000000015441.00
$DFSHD,000370
$GPINT,000000015441.00
$GPGLL,2222.5804,N,12030.6143,E,015441,A

$EXINT,000000015451.00
$DFSHD,000371
$GPINT,000000015451.00
$GPGLL,2222.5884,N,12030.6021,E,015451,A

$EXINT,000000015501.00
$DFSHD,000372
$GPINT,000000015501.00
$GPGLL,2222.5966,N,12030.5902,E,015501,A

$EXINT,000000015511.00
$DFSHD,000373
$GPINT,000000015511.00
$GPGLL,2222.6057,N,12030.5788,E,015511,A

$EXINT,000000015521.00
$DFSHD,000374
$GPINT,000000015521.00
$GPGLL,2222.6133,N,12030.5667,E,015521,A

$EXINT,000000015531.00
$DFSHD,000375
$GPINT,000000015531.00
$GPGLL,2222.6220,N,12030.5549,E,015531,A

$EXINT,000000015541.00
$DFSHD,000376
$GPINT,000000015541.00
$GPGLL,2222.6301,N,12030.5443,E,015541,A

$EXINT,000000015551.00
$DFSHD,000377
$GPINT,000000015551.00
$GPGLL,2222.6392,N,12030.5330,E,015551,A

$EXINT,000000015601.00
$DFSHD,000378
$GPINT,000000015601.00
$GPGLL,2222.6477,N,12030.5209,E,015601,A

$EXINT,000000015611.00
$DFSHD,000379
$GPINT,000000015611.00
$GPGLL,2222.6562,N,12030.5101,E,015611,A

$EXINT,000000015621.00
$DFSHD,000380
$GPINT,000000015621.00
$GPGLL,2222.6651,N,12030.4981,E,015621,A

$EXINT,000000015631.00
$DFSHD,000381
$GPINT,000000015631.00
$GPGLL,2222.6747,N,12030.4864,E,015631,A

$EXINT,000000015641.00
$DFSHD,000382
$GPINT,000000015641.00
$GPGLL,2222.6837,N,12030.4738,E,015641,A

$EXINT,000000015651.00
$DFSHD,000383
$GPINT,000000015651.00
$GPGLL,2222.6921,N,12030.4623,E,015651,A

$EXINT,000000015701.00
$DFSHD,000384
$GPINT,000000015701.00
$GPGLL,2222.7002,N,12030.4507,E,015701,A

$EXINT,000000015711.00
$DFSHD,000385
$GPINT,000000015711.00
$GPGLL,2222.7091,N,12030.4413,E,015711,A

$EXINT,000000015721.00
$DFSHD,000386
$GPINT,000000015721.00
$GPGLL,2222.7172,N,12030.4292,E,015721,A

$EXINT,000000015731.00
$DFSHD,000387
$GPINT,000000015731.00
$GPGLL,2222.7257,N,12030.4172,E,015731,A

$EXINT,000000015741.00
$DFSHD,000388
$GPINT,000000015741.00
$GPGLL,2222.7328,N,12030.4046,E,015741,A

$EXINT,000000015751.00
$DFSHD,000389
$GPINT,000000015751.00
$GPGLL,2222.7411,N,12030.3926,E,015751,A

$EXINT,000000015801.00
$DFSHD,000390
$GPINT,000000015801.00
$GPGLL,2222.7500,N,12030.3805,E,015801,A

$EXINT,000000015811.00
$DFSHD,000391
$GPINT,000000015811.00
$GPGLL,2222.7593,N,12030.3687,E,015811,A

$EXINT,000000015821.00
$DFSHD,000392
$GPINT,000000015821.00
$GPGLL,2222.7679,N,12030.3581,E,015821,A

$EXINT,000000015831.00
$DFSHD,000393
$GPINT,000000015831.00
$GPGLL,2222.7764,N,12030.3458,E,015831,A

$EXINT,000000015841.00
$DFSHD,000394
$GPINT,000000015841.00
$GPGLL,2222.7853,N,12030.3346,E,015841,A

$EXINT,000000015851.00
$DFSHD,000395
$GPINT,000000015851.00
$GPGLL,2222.7945,N,12030.3228,E,015851,A

$EXINT,000000015901.00
$DFSHD,000396
$GPINT,000000015901.00
$GPGLL,2222.8027,N,12030.3120,E,015901,A

$EXINT,000000015911.00
$DFSHD,000397
$GPINT,000000015911.00
$GPGLL,2222.8109,N,12030.3006,E,015911,A

$EXINT,000000015921.00
$DFSHD,000398
$GPINT,000000015921.00
$GPGLL,2222.8196,N,12030.2889,E,015921,A

$EXINT,000000015931.00
$DFSHD,000399
$GPINT,000000015931.00
$GPGLL,2222.8282,N,12030.2772,E,015931,A

$EXINT,000000015941.00
$DFSHD,000400
$GPINT,000000015941.00
$GPGLL,2222.8360,N,12030.2656,E,015941,A

$EXINT,000000015951.00
$DFSHD,000401
$GPINT,000000015951.00
$GPGLL,2222.8437,N,12030.2539,E,015951,A

$EXINT,000000020001.00
$DFSHD,000402
$GPINT,000000020001.00
$GPGLL,2222.8525,N,12030.2408,E,020001,A

$EXINT,000000020011.00
$DFSHD,000403
$GPINT,000000020011.00
$GPGLL,2222.8608,N,12030.2286,E,020011,A

$EXINT,000000020021.00
$DFSHD,000404
$GPINT,000000020021.00
$GPGLL,2222.8693,N,12030.2164,E,020021,A

$EXINT,000000020031.00
$DFSHD,000405
$GPINT,000000020031.00
$GPGLL,2222.8776,N,12030.2057,E,020031,A

$EXINT,000000020041.00
$DFSHD,000406
$GPINT,000000020041.00
$GPGLL,2222.8875,N,12030.1939,E,020041,A

$EXINT,000000020051.00
$DFSHD,000407
$GPINT,000000020051.00
$GPGLL,2222.8965,N,12030.1818,E,020051,A

$EXINT,000000020101.00
$DFSHD,000408
$GPINT,000000020101.00
$GPGLL,2222.9057,N,12030.1709,E,020101,A

$EXINT,000000020111.00
$DFSHD,000409
$GPINT,000000020111.00
$GPGLL,2222.9138,N,12030.1593,E,020111,A

$EXINT,000000020121.00
$DFSHD,000410
$GPINT,000000020121.00
$GPGLL,2222.9225,N,12030.1478,E,020121,A

$EXINT,000000020131.00
$DFSHD,000411
$GPINT,000000020131.00
$GPGLL,2222.9318,N,12030.1367,E,020131,A

$EXINT,000000020141.00
$DFSHD,000412
$GPINT,000000020141.00
$GPGLL,2222.9400,N,12030.1249,E,020141,A

$EXINT,000000020151.00
$DFSHD,000413
$GPINT,000000020151.00
$GPGLL,2222.9485,N,12030.1131,E,020151,A

$EXINT,000000020201.00
$DFSHD,000414
$GPINT,000000020201.00
$GPGLL,2222.9569,N,12030.1015,E,020201,A

$EXINT,000000020211.00
$DFSHD,000415
$GPINT,000000020211.00
$GPGLL,2222.9661,N,12030.0894,E,020211,A

$EXINT,000000020221.00
$DFSHD,000416
$GPINT,000000020221.00
$GPGLL,2222.9735,N,12030.0778,E,020221,A

$EXINT,000000020231.00
$DFSHD,000417
$GPINT,000000020231.00
$GPGLL,2222.9823,N,12030.0655,E,020231,A

$EXINT,000000020241.00
$DFSHD,000418
$GPINT,000000020241.00
$GPGLL,2222.9903,N,12030.0537,E,020241,A

$EXINT,000000020251.00
$DFSHD,000419
$GPINT,000000020251.00
$GPGLL,2222.9986,N,12030.0419,E,020251,A

$EXINT,000000020301.00
$DFSHD,000420
$GPINT,000000020301.00
$GPGLL,2223.0070,N,12030.0295,E,020301,A

$EXINT,000000020311.00
$DFSHD,000421
$GPINT,000000020311.00
$GPGLL,2223.0163,N,12030.0175,E,020311,A

$EXINT,000000020321.00
$DFSHD,000422
$GPINT,000000020321.00
$GPGLL,2223.0252,N,12030.0058,E,020321,A

$EXINT,000000020331.00
$DFSHD,000423
$GPINT,000000020331.00
$GPGLL,2223.0340,N,12029.9942,E,020331,A

$EXINT,000000020341.00
$DFSHD,000424
$GPINT,000000020341.00
$GPGLL,2223.0428,N,12029.9820,E,020341,A

$EXINT,000000020351.00
$DFSHD,000425
$GPINT,000000020351.00
$GPGLL,2223.0516,N,12029.9704,E,020351,A

$EXINT,000000020401.00
$DFSHD,000426
$GPINT,000000020401.00
$GPGLL,2223.0601,N,12029.9585,E,020401,A

$EXINT,000000020411.00
$DFSHD,000427
$GPINT,000000020411.00
$GPGLL,2223.0692,N,12029.9465,E,020411,A

$EXINT,000000020421.00
$DFSHD,000428
$GPINT,000000020421.00
$GPGLL,2223.0777,N,12029.9345,E,020421,A

$EXINT,000000020431.00
$DFSHD,000429
$GPINT,000000020431.00
$GPGLL,2223.0863,N,12029.9223,E,020431,A

$EXINT,000000020441.00
$DFSHD,000430
$GPINT,000000020441.00
$GPGLL,2223.0948,N,12029.9105,E,020441,A

$EXINT,000000020451.00
$DFSHD,000431
$GPINT,000000020451.00
$GPGLL,2223.1029,N,12029.8991,E,020451,A

$EXINT,000000020501.00
$DFSHD,000432
$GPINT,000000020501.00
$GPGLL,2223.1116,N,12029.8874,E,020501,A

$EXINT,000000020511.00
$DFSHD,000433
$GPINT,000000020511.00
$GPGLL,2223.1200,N,12029.8760,E,020511,A

$EXINT,000000020521.00
$DFSHD,000434
$GPINT,000000020521.00
$GPGLL,2223.1279,N,12029.8650,E,020521,A

$EXINT,000000020531.00
$DFSHD,000435
$GPINT,000000020531.00
$GPGLL,2223.1367,N,12029.8547,E,020531,A

$EXINT,000000020541.00
$DFSHD,000436
$GPINT,000000020541.00
$GPGLL,2223.1453,N,12029.8426,E,020541,A

$EXINT,000000020551.00
$DFSHD,000437
$GPINT,000000020551.00
$GPGLL,2223.1544,N,12029.8312,E,020551,A

$EXINT,000000020601.00
$DFSHD,000438
$GPINT,000000020601.00
$GPGLL,2223.1629,N,12029.8185,E,020601,A

$EXINT,000000020611.00
$DFSHD,000439
$GPINT,000000020611.00
$GPGLL,2223.1715,N,12029.8067,E,020611,A

$EXINT,000000020621.00
$DFSHD,000440
$GPINT,000000020621.00
$GPGLL,2223.1800,N,12029.7945,E,020621,A

$EXINT,000000020631.00
$DFSHD,000441
$GPINT,000000020631.00
$GPGLL,2223.1887,N,12029.7825,E,020631,A

$EXINT,000000020641.00
$DFSHD,000442
$GPINT,000000020641.00
$GPGLL,2223.1973,N,12029.7707,E,020641,A

$EXINT,000000020651.00
$DFSHD,000443
$GPINT,000000020651.00
$GPGLL,2223.2058,N,12029.7584,E,020651,A

$EXINT,000000020701.00
$DFSHD,000444
$GPINT,000000020701.00
$GPGLL,2223.2147,N,12029.7464,E,020701,A

$EXINT,000000020711.00
$DFSHD,000445
$GPINT,000000020711.00
$GPGLL,2223.2233,N,12029.7346,E,020711,A

$EXINT,000000020721.00
$DFSHD,000446
$GPINT,000000020721.00
$GPGLL,2223.2323,N,12029.7238,E,020721,A

$EXINT,000000020731.00
$DFSHD,000447
$GPINT,000000020731.00
$GPGLL,2223.2406,N,12029.7120,E,020731,A

$EXINT,000000020741.00
$DFSHD,000448
$GPINT,000000020741.00
$GPGLL,2223.2500,N,12029.6997,E,020741,A

$EXINT,000000020751.00
$DFSHD,000449
$GPINT,000000020751.00
$GPGLL,2223.2590,N,12029.6867,E,020751,A

$EXINT,000000020801.00
$DFSHD,000450
$GPINT,000000020801.00
$GPGLL,2223.2668,N,12029.6753,E,020801,A

$EXINT,000000020811.00
$DFSHD,000451
$GPINT,000000020811.00
$GPGLL,2223.2755,N,12029.6639,E,020811,A

$EXINT,000000020821.00
$DFSHD,000452
$GPINT,000000020821.00
$GPGLL,2223.2836,N,12029.6525,E,020821,A

$EXINT,000000020831.00
$DFSHD,000453
$GPINT,000000020831.00
$GPGLL,2223.2918,N,12029.6414,E,020831,A

$EXINT,000000020841.00
$DFSHD,000454
$GPINT,000000020841.00
$GPGLL,2223.2996,N,12029.6292,E,020841,A

$EXINT,000000020851.00
$DFSHD,000455
$GPINT,000000020851.00
$GPGLL,2223.3085,N,12029.6167,E,020851,A

$EXINT,000000020901.00
$DFSHD,000456
$GPINT,000000020901.00
$GPGLL,2223.3170,N,12029.6047,E,020901,A

$EXINT,000000020911.00
$DFSHD,000457
$GPINT,000000020911.00
$GPGLL,2223.3254,N,12029.5927,E,020911,A

$EXINT,000000020921.00
$DFSHD,000458
$GPINT,000000020921.00
$GPGLL,2223.3338,N,12029.5818,E,020921,A

$EXINT,000000020931.00
$DFSHD,000459
$GPINT,000000020931.00
$GPGLL,2223.3416,N,12029.5701,E,020931,A

$EXINT,000000020941.00
$DFSHD,000460
$GPINT,000000020941.00
$GPGLL,2223.3497,N,12029.5588,E,020941,A

$EXINT,000000020951.00
$DFSHD,000461
$GPINT,000000020951.00
$GPGLL,2223.3586,N,12029.5472,E,020951,A

$EXINT,000000021001.00
$DFSHD,000462
$GPINT,000000021001.00
$GPGLL,2223.3677,N,12029.5352,E,021001,A

$EXINT,000000021011.00
$DFSHD,000463
$GPINT,000000021011.00
$GPGLL,2223.3765,N,12029.5231,E,021011,A

$EXINT,000000021021.00
$DFSHD,000464
$GPINT,000000021021.00
$GPGLL,2223.3855,N,12029.5111,E,021021,A

$EXINT,000000021031.00
$DFSHD,000465
$GPINT,000000021031.00
$GPGLL,2223.3945,N,12029.5000,E,021031,A

$EXINT,000000021041.00
$DFSHD,000466
$GPINT,000000021041.00
$GPGLL,2223.4022,N,12029.4883,E,021041,A

$EXINT,000000021051.00
$DFSHD,000467
$GPINT,000000021051.00
$GPGLL,2223.4107,N,12029.4766,E,021051,A

$EXINT,000000021101.00
$DFSHD,000468
$GPINT,000000021101.00
$GPGLL,2223.4197,N,12029.4642,E,021101,A

$EXINT,000000021111.00
$DFSHD,000469
$GPINT,000000021111.00
$GPGLL,2223.4278,N,12029.4521,E,021111,A

$EXINT,000000021121.00
$DFSHD,000470
$GPINT,000000021121.00
$GPGLL,2223.4364,N,12029.4403,E,021121,A

$EXINT,000000021131.00
$DFSHD,000471
$GPINT,000000021131.00
$GPGLL,2223.4450,N,12029.4283,E,021131,A

$EXINT,000000021141.00
$DFSHD,000472
$GPINT,000000021141.00
$GPGLL,2223.4537,N,12029.4165,E,021141,A

$EXINT,000000021151.00
$DFSHD,000473
$GPINT,000000021151.00
$GPGLL,2223.4614,N,12029.4047,E,021151,A

$EXINT,000000021201.00
$DFSHD,000474
$GPINT,000000021201.00
$GPGLL,2223.4693,N,12029.3929,E,021201,A

$EXINT,000000021211.00
$DFSHD,000475
$GPINT,000000021211.00
$GPGLL,2223.4781,N,12029.3817,E,021211,A

$EXINT,000000021221.00
$DFSHD,000476
$GPINT,000000021221.00
$GPGLL,2223.4865,N,12029.3699,E,021221,A

$EXINT,000000021231.00
$DFSHD,000477
$GPINT,000000021231.00
$GPGLL,2223.4945,N,12029.3584,E,021231,A

$EXINT,000000021241.00
$DFSHD,000478
$GPINT,000000021241.00
$GPGLL,2223.5035,N,12029.3468,E,021241,A

$EXINT,000000021251.00
$DFSHD,000479
$GPINT,000000021251.00
$GPGLL,2223.5120,N,12029.3352,E,021251,A

$EXINT,000000021301.00
$DFSHD,000480
$GPINT,000000021301.00
$GPGLL,2223.5208,N,12029.3240,E,021301,A

$EXINT,000000021311.00
$DFSHD,000481
$GPINT,000000021311.00
$GPGLL,2223.5291,N,12029.3119,E,021311,A

$EXINT,000000021321.00
$DFSHD,000482
$GPINT,000000021321.00
$GPGLL,2223.5386,N,12029.2999,E,021321,A

$EXINT,000000021331.00
$DFSHD,000483
$GPINT,000000021331.00
$GPGLL,2223.5474,N,12029.2876,E,021331,A

$EXINT,000000021341.00
$DFSHD,000484
$GPINT,000000021341.00
$GPGLL,2223.5557,N,12029.2754,E,021341,A

$EXINT,000000021351.00
$DFSHD,000485
$GPINT,000000021351.00
$GPGLL,2223.5639,N,12029.2631,E,021351,A

$EXINT,000000021401.00
$DFSHD,000486
$GPINT,000000021401.00
$GPGLL,2223.5720,N,12029.2512,E,021401,A

$EXINT,000000021411.00
$DFSHD,000487
$GPINT,000000021411.00
$GPGLL,2223.5800,N,12029.2399,E,021411,A

$EXINT,000000021421.00
$DFSHD,000488
$GPINT,000000021421.00
$GPGLL,2223.5884,N,12029.2280,E,021421,A

$EXINT,000000021431.00
$DFSHD,000489
$GPINT,000000021431.00
$GPGLL,2223.5968,N,12029.2155,E,021431,A

$EXINT,000000021441.00
$DFSHD,000490
$GPINT,000000021441.00
$GPGLL,2223.6056,N,12029.2036,E,021441,A

$EXINT,000000021451.00
$DFSHD,000491
$GPINT,000000021451.00
$GPGLL,2223.6147,N,12029.1921,E,021451,A

$EXINT,000000021501.00
$DFSHD,000492
$GPINT,000000021501.00
$GPGLL,2223.6232,N,12029.1805,E,021501,A

$EXINT,000000021511.00
$DFSHD,000493
$GPINT,000000021511.00
$GPGLL,2223.6312,N,12029.1686,E,021511,A

$EXINT,000000021521.00
$DFSHD,000494
$GPINT,000000021521.00
$GPGLL,2223.6393,N,12029.1571,E,021521,A

$EXINT,000000021531.00
$DFSHD,000495
$GPINT,000000021531.00
$GPGLL,2223.6484,N,12029.1457,E,021531,A

$EXINT,000000021541.00
$DFSHD,000496
$GPINT,000000021541.00
$GPGLL,2223.6570,N,12029.1344,E,021541,A

$EXINT,000000021551.00
$DFSHD,000497
$GPINT,000000021551.00
$GPGLL,2223.6658,N,12029.1223,E,021551,A

$EXINT,000000021601.00
$DFSHD,000498
$GPINT,000000021601.00
$GPGLL,2223.6740,N,12029.1107,E,021601,A

$EXINT,000000021611.00
$DFSHD,000499
$GPINT,000000021611.00
$GPGLL,2223.6826,N,12029.0986,E,021611,A

$EXINT,000000021621.00
$DFSHD,000500
$GPINT,000000021621.00
$GPGLL,2223.6908,N,12029.0870,E,021621,A

$EXINT,000000021631.00
$DFSHD,000501
$GPINT,000000021631.00
$GPGLL,2223.6987,N,12029.0754,E,021631,A

$EXINT,000000021641.00
$DFSHD,000502
$GPINT,000000021641.00
$GPGLL,2223.7071,N,12029.0640,E,021641,A

$EXINT,000000021651.00
$DFSHD,000503
$GPINT,000000021651.00
$GPGLL,2223.7152,N,12029.0530,E,021651,A

$EXINT,000000021701.00
$DFSHD,000504
$GPINT,000000021701.00
$GPGLL,2223.7231,N,12029.0407,E,021701,A

$EXINT,000000021711.00
$DFSHD,000505
$GPINT,000000021711.00
$GPGLL,2223.7307,N,12029.0283,E,021711,A

$EXINT,000000021721.00
$DFSHD,000506
$GPINT,000000021721.00
$GPGLL,2223.7391,N,12029.0164,E,021721,A

$EXINT,000000021731.00
$DFSHD,000507
$GPINT,000000021731.00
$GPGLL,2223.7481,N,12029.0047,E,021731,A

$EXINT,000000021741.00
$DFSHD,000508
$GPINT,000000021741.00
$GPGLL,2223.7567,N,12028.9928,E,021741,A

$EXINT,000000021751.00
$DFSHD,000509
$GPINT,000000021751.00
$GPGLL,2223.7662,N,12028.9814,E,021751,A

$EXINT,000000021801.00
$DFSHD,000510
$GPINT,000000021801.00
$GPGLL,2223.7746,N,12028.9699,E,021801,A

$EXINT,000000021811.00
$DFSHD,000511
$GPINT,000000021811.00
$GPGLL,2223.7832,N,12028.9579,E,021811,A

$EXINT,000000021821.00
$DFSHD,000512
$GPINT,000000021821.00
$GPGLL,2223.7912,N,12028.9470,E,021821,A

$EXINT,000000021831.00
$DFSHD,000513
$GPINT,000000021831.00
$GPGLL,2223.7995,N,12028.9355,E,021831,A

$EXINT,000000021841.00
$DFSHD,000514
$GPINT,000000021841.00
$GPGLL,2223.8081,N,12028.9242,E,021841,A

$EXINT,000000021851.00
$DFSHD,000515
$GPINT,000000021851.00
$GPGLL,2223.8168,N,12028.9120,E,021851,A

$EXINT,000000021901.00
$DFSHD,000516
$GPINT,000000021901.00
$GPGLL,2223.8245,N,12028.8996,E,021901,A

$EXINT,000000021911.00
$DFSHD,000517
$GPINT,000000021911.00
$GPGLL,2223.8331,N,12028.8883,E,021911,A

$EXINT,000000021921.00
$DFSHD,000518
$GPINT,000000021921.00
$GPGLL,2223.8408,N,12028.8768,E,021921,A

$EXINT,000000021931.00
$DFSHD,000519
$GPINT,000000021931.00
$GPGLL,2223.8488,N,12028.8640,E,021931,A

$EXINT,000000021941.00
$DFSHD,000520
$GPINT,000000021941.00
$GPGLL,2223.8570,N,12028.8523,E,021941,A

$EXINT,000000021951.00
$DFSHD,000521
$GPINT,000000021951.00
$GPGLL,2223.8658,N,12028.8407,E,021951,A

$EXINT,000000022001.00
$DFSHD,000522
$GPINT,000000022001.00
$GPGLL,2223.8749,N,12028.8285,E,022001,A

$EXINT,000000022011.00
$DFSHD,000523
$GPINT,000000022011.00
$GPGLL,2223.8832,N,12028.8179,E,022011,A

$EXINT,000000022021.00
$DFSHD,000524
$GPINT,000000022021.00
$GPGLL,2223.8918,N,12028.8061,E,022021,A

$EXINT,000000022031.00
$DFSHD,000525
$GPINT,000000022031.00
$GPGLL,2223.9001,N,12028.7953,E,022031,A

$EXINT,000000022041.00
$DFSHD,000526
$GPINT,000000022041.00
$GPGLL,2223.9087,N,12028.7829,E,022041,A

$EXINT,000000022051.00
$DFSHD,000527
$GPINT,000000022051.00
$GPGLL,2223.9170,N,12028.7703,E,022051,A

$EXINT,000000022101.00
$DFSHD,000528
$GPINT,000000022101.00
$GPGLL,2223.9263,N,12028.7589,E,022101,A

$EXINT,000000022111.00
$DFSHD,000529
$GPINT,000000022111.00
$GPGLL,2223.9350,N,12028.7471,E,022111,A

$EXINT,000000022121.00
$DFSHD,000530
$GPINT,000000022121.00
$GPGLL,2223.9433,N,12028.7347,E,022121,A

$EXINT,000000022131.00
$DFSHD,000531
$GPINT,000000022131.00
$GPGLL,2223.9520,N,12028.7226,E,022131,A

$EXINT,000000022141.00
$DFSHD,000532
$GPINT,000000022141.00
$GPGLL,2223.9605,N,12028.7102,E,022141,A

$EXINT,000000022151.00
$DFSHD,000533
$GPINT,000000022151.00
$GPGLL,2223.9685,N,12028.6995,E,022151,A

$EXINT,000000022201.00
$DFSHD,000534
$GPINT,000000022201.00
$GPGLL,2223.9763,N,12028.6868,E,022201,A

$EXINT,000000022211.00
$DFSHD,000535
$GPINT,000000022211.00
$GPGLL,2223.9848,N,12028.6745,E,022211,A

$EXINT,000000022221.00
$DFSHD,000536
$GPINT,000000022221.00
$GPGLL,2223.9930,N,12028.6620,E,022221,A

$EXINT,000000022231.00
$DFSHD,000537
$GPINT,000000022231.00
$GPGLL,2224.0021,N,12028.6504,E,022231,A

$EXINT,000000022241.00
$DFSHD,000538
$GPINT,000000022241.00
$GPGLL,2224.0110,N,12028.6396,E,022241,A

$EXINT,000000022251.00
$DFSHD,000539
$GPINT,000000022251.00
$GPGLL,2224.0189,N,12028.6274,E,022251,A

$EXINT,000000022301.00
$DFSHD,000540
$GPINT,000000022301.00
$GPGLL,2224.0265,N,12028.6156,E,022301,A

$EXINT,000000022311.00
$DFSHD,000541
$GPINT,000000022311.00
$GPGLL,2224.0346,N,12028.6034,E,022311,A

$EXINT,000000022321.00
$DFSHD,000542
$GPINT,000000022321.00
$GPGLL,2224.0436,N,12028.5912,E,022321,A

$EXINT,000000022331.00
$DFSHD,000543
$GPINT,000000022331.00
$GPGLL,2224.0529,N,12028.5792,E,022331,A

$EXINT,000000022341.00
$DFSHD,000544
$GPINT,000000022341.00
$GPGLL,2224.0618,N,12028.5689,E,022341,A

$EXINT,000000022351.00
$DFSHD,000545
$GPINT,000000022351.00
$GPGLL,2224.0710,N,12028.5579,E,022351,A

$EXINT,000000022401.00
$DFSHD,000546
$GPINT,000000022401.00
$GPGLL,2224.0799,N,12028.5465,E,022401,A

$EXINT,000000022411.00
$DFSHD,000547
$GPINT,000000022411.00
$GPGLL,2224.0893,N,12028.5347,E,022411,A

$EXINT,000000022421.00
$DFSHD,000548
$GPINT,000000022421.00
$GPGLL,2224.0973,N,12028.5214,E,022421,A

$EXINT,000000022431.00
$DFSHD,000549
$GPINT,000000022431.00
$GPGLL,2224.1056,N,12028.5085,E,022431,A

$EXINT,000000022441.00
$DFSHD,000550
$GPINT,000000022441.00
$GPGLL,2224.1144,N,12028.4968,E,022441,A

$EXINT,000000022451.00
$DFSHD,000551
$GPINT,000000022451.00
$GPGLL,2224.1231,N,12028.4855,E,022451,A

$EXINT,000000022501.00
$DFSHD,000552
$GPINT,000000022501.00
$GPGLL,2224.1319,N,12028.4738,E,022501,A

$EXINT,000000022511.00
$DFSHD,000553
$GPINT,000000022511.00
$GPGLL,2224.1405,N,12028.4623,E,022511,A

$EXINT,000000022521.00
$DFSHD,000554
$GPINT,000000022521.00
$GPGLL,2224.1494,N,12028.4503,E,022521,A

$EXINT,000000022531.00
$DFSHD,000555
$GPINT,000000022531.00
$GPGLL,2224.1579,N,12028.4385,E,022531,A

$EXINT,000000022541.00
$DFSHD,000556
$GPINT,000000022541.00
$GPGLL,2224.1667,N,12028.4266,E,022541,A

$EXINT,000000022551.00
$DFSHD,000557
$GPINT,000000022551.00
$GPGLL,2224.1751,N,12028.4147,E,022551,A

$EXINT,000000022601.00
$DFSHD,000558
$GPINT,000000022601.00
$GPGLL,2224.1843,N,12028.4021,E,022601,A

$EXINT,000000022611.00
$DFSHD,000559
$GPINT,000000022611.00
$GPGLL,2224.1929,N,12028.3903,E,022611,A

$EXINT,000000022621.00
$DFSHD,000560
$GPINT,000000022621.00
$GPGLL,2224.2022,N,12028.3783,E,022621,A

$EXINT,000000022631.00
$DFSHD,000561
$GPINT,000000022631.00
$GPGLL,2224.2101,N,12028.3663,E,022631,A

$EXINT,000000022641.00
$DFSHD,000562
$GPINT,000000022641.00
$GPGLL,2224.2187,N,12028.3541,E,022641,A

$EXINT,000000022651.00
$DFSHD,000563
$GPINT,000000022651.00
$GPGLL,2224.2269,N,12028.3423,E,022651,A

$EXINT,000000022701.00
$DFSHD,000564
$GPINT,000000022701.00
$GPGLL,2224.2350,N,12028.3299,E,022701,A

$EXINT,000000022711.00
$DFSHD,000565
$GPINT,000000022711.00
$GPGLL,2224.2443,N,12028.3182,E,022711,A

$EXINT,000000022721.00
$DFSHD,000566
$GPINT,000000022721.00
$GPGLL,2224.2531,N,12028.3060,E,022721,A

$EXINT,000000022731.00
$DFSHD,000567
$GPINT,000000022731.00
$GPGLL,2224.2621,N,12028.2942,E,022731,A

$EXINT,000000022741.00
$DFSHD,000568
$GPINT,000000022741.00
$GPGLL,2224.2705,N,12028.2823,E,022741,A

$EXINT,000000022751.00
$DFSHD,000569
$GPINT,000000022751.00
$GPGLL,2224.2790,N,12028.2701,E,022751,A

$EXINT,000000022801.00
$DFSHD,000570
$GPINT,000000022801.00
$GPGLL,2224.2883,N,12028.2587,E,022801,A

$EXINT,000000022811.00
$DFSHD,000571
$GPINT,000000022811.00
$GPGLL,2224.2965,N,12028.2465,E,022811,A

$EXINT,000000022821.00
$DFSHD,000572
$GPINT,000000022821.00
$GPGLL,2224.3051,N,12028.2336,E,022821,A

$EXINT,000000022831.00
$DFSHD,000573
$GPINT,000000022831.00
$GPGLL,2224.3130,N,12028.2222,E,022831,A

$EXINT,000000022841.00
$DFSHD,000574
$GPINT,000000022841.00
$GPGLL,2224.3208,N,12028.2101,E,022841,A

$EXINT,000000022851.00
$DFSHD,000575
$GPINT,000000022851.00
$GPGLL,2224.3299,N,12028.1979,E,022851,A

$EXINT,000000022901.00
$DFSHD,000576
$GPINT,000000022901.00
$GPGLL,2224.3378,N,12028.1856,E,022901,A

$EXINT,000000022911.00
$DFSHD,000577
$GPINT,000000022911.00
$GPGLL,2224.3459,N,12028.1736,E,022911,A

$EXINT,000000022921.00
$DFSHD,000578
$GPINT,000000022921.00
$GPGLL,2224.3546,N,12028.1610,E,022921,A

$EXINT,000000022931.00
$DFSHD,000579
$GPINT,000000022931.00
$GPGLL,2224.3631,N,12028.1485,E,022931,A

$EXINT,000000022941.00
$DFSHD,000580
$GPINT,000000022941.00
$GPGLL,2224.3712,N,12028.1368,E,022941,A

$EXINT,000000022951.00
$DFSHD,000581
$GPINT,000000022951.00
$GPGLL,2224.3800,N,12028.1258,E,022951,A

$EXINT,000000023001.00
$DFSHD,000582
$GPINT,000000023001.00
$GPGLL,2224.3879,N,12028.1141,E,023001,A

$EXINT,000000023011.00
$DFSHD,000583
$GPINT,000000023011.00
$GPGLL,2224.3980,N,12028.1024,E,023011,A

$EXINT,000000023021.00
$DFSHD,000584
$GPINT,000000023021.00
$GPGLL,2224.4069,N,12028.0907,E,023021,A

$EXINT,000000023031.00
$DFSHD,000585
$GPINT,000000023031.00
$GPGLL,2224.4154,N,12028.0792,E,023031,A

$EXINT,000000023041.00
$DFSHD,000586
$GPINT,000000023041.00
$GPGLL,2224.4245,N,12028.0684,E,023041,A

$EXINT,000000023051.00
$DFSHD,000587
$GPINT,000000023051.00
$GPGLL,2224.4336,N,12028.0563,E,023051,A

$EXINT,000000023101.00
$DFSHD,000588
$GPINT,000000023101.00
$GPGLL,2224.4413,N,12028.0442,E,023101,A

$EXINT,000000023111.00
$DFSHD,000589
$GPINT,000000023111.00
$GPGLL,2224.4496,N,12028.0325,E,023111,A

$EXINT,000000023121.00
$DFSHD,000590
$GPINT,000000023121.00
$GPGLL,2224.4587,N,12028.0208,E,023121,A

$EXINT,000000023131.00
$DFSHD,000591
$GPINT,000000023131.00
$GPGLL,2224.4665,N,12028.0087,E,023131,A

$EXINT,000000023141.00
$DFSHD,000592
$GPINT,000000023141.00
$GPGLL,2224.4746,N,12027.9972,E,023141,A

$EXINT,000000023151.00
$DFSHD,000593
$GPINT,000000023151.00
$GPGLL,2224.4839,N,12027.9858,E,023151,A

$EXINT,000000023201.00
$DFSHD,000594
$GPINT,000000023201.00
$GPGLL,2224.4925,N,12027.9744,E,023201,A

$EXINT,000000023211.00
$DFSHD,000595
$GPINT,000000023211.00
$GPGLL,2224.5014,N,12027.9631,E,023211,A

$EXINT,000000023221.00
$DFSHD,000596
$GPINT,000000023221.00
$GPGLL,2224.5102,N,12027.9512,E,023221,A

$EXINT,000000023231.00
